{
"type": "FeatureCollection",
"name": "lid_usgs",
"crs": { "type": "name", "properties": { "name": "urn:ogc:def:crs:OGC:1.3:CRS84" } },
"features": [
{ "type": "Feature", "properties": { "X": -92.418796, "Y": 40.769466, "lid": 74725, "USGS_id": 5494300, "USGS_name": "Fox River at Bloomfield (BMFI4-05494300)", "Area": 225.32913, "Slope": 0.114329, "t_trav": 14.69, "lat": 40.769466, "lon": -92.418796, "ifis_id": 647, "num_up_gag": 1 }, "geometry": { "type": "Point", "coordinates": [ -92.418796, 40.769466 ] } },
{ "type": "Feature", "properties": { "X": -94.716636, "Y": 40.660543, "lid": 78279, "USGS_id": 6819185, "USGS_name": "East Fork 102 River at Bedford (BDFI4-06819185)", "Area": 222.73914, "Slope": 0.112567, "t_trav": 16.31, "lat": 40.660543, "lon": -94.716636, "ifis_id": 669, "num_up_gag": 1 }, "geometry": { "type": "Point", "coordinates": [ -94.716636, 40.660543 ] } },
{ "type": "Feature", "properties": { "X": -93.80828, "Y": 40.64028, "lid": 79118, "USGS_id": 6898000, "USGS_name": "Thompson River at Davis City (DVSI4-06898000)", "Area": 1807.81302, "Slope": 0.14682, "t_trav": 58.88, "lat": 40.64028, "lon": -93.80828, "ifis_id": 670, "num_up_gag": 1 }, "geometry": { "type": "Point", "coordinates": [ -93.80828, 40.64028 ] } },
{ "type": "Feature", "properties": { "X": -93.19243, "Y": 40.800561, "lid": 83159, "USGS_id": 6903700, "USGS_name": "South Fork Chariton River near Promise City (PRMI4-06903700)", "Area": 437.70831, "Slope": 0.109932, "t_trav": 15.36, "lat": 40.800561, "lon": -93.19243, "ifis_id": 672, "num_up_gag": 1 }, "geometry": { "type": "Point", "coordinates": [ -93.19243, 40.800561 ] } },
{ "type": "Feature", "properties": { "X": -95.014194, "Y": 40.743278, "lid": 98104, "USGS_id": 6817000, "USGS_name": "Nodaway River at Clarinda (ICLI4-06817000)", "Area": 1976.16237, "Slope": 0.130684, "t_trav": 45.5, "lat": 40.743278, "lon": -95.014194, "ifis_id": 668, "num_up_gag": 1 }, "geometry": { "type": "Point", "coordinates": [ -95.014194, 40.743278 ] } },
{ "type": "Feature", "properties": { "X": -93.259848, "Y": 40.95189, "lid": 104818, "USGS_id": 6903400, "USGS_name": "Chariton River near Chariton (CHTI4-06903400)", "Area": 479.14815, "Slope": 0.097168, "t_trav": 25.3, "lat": 40.95189, "lon": -93.259848, "ifis_id": 671, "num_up_gag": 1 }, "geometry": { "type": "Point", "coordinates": [ -93.259848, 40.95189 ] } },
{ "type": "Feature", "properties": { "X": -92.908533, "Y": 41.219002, "lid": 108201, "USGS_id": 5489000, "USGS_name": "Cedar Creek near Bussey (BSSI4-05489000)", "Area": 968.65626, "Slope": 0.16503, "t_trav": 29.41, "lat": 41.219002, "lon": -92.908533, "ifis_id": 644, "num_up_gag": 1 }, "geometry": { "type": "Point", "coordinates": [ -92.908533, 41.219002 ] } },
{ "type": "Feature", "properties": { "X": -91.55155, "Y": 41.006973, "lid": 110818, "USGS_id": 5473450, "USGS_name": "Big Creek near Mount Pleasant (05473450)", "Area": 160.57938, "Slope": 0.037425, "t_trav": 12.62, "lat": 41.006973, "lon": -91.55155, "ifis_id": 557, "num_up_gag": 1 }, "geometry": { "type": "Point", "coordinates": [ -91.55155, 41.006973 ] } },
{ "type": "Feature", "properties": { "X": -91.67422, "Y": 40.925305, "lid": 114284, "USGS_id": 5473400, "USGS_name": "Cedar Creek near Oakland Mills (05473400)", "Area": 1380.46467, "Slope": 0.080582, "t_trav": 48.07, "lat": 40.925305, "lon": -91.67422, "ifis_id": 556, "num_up_gag": 1 }, "geometry": { "type": "Point", "coordinates": [ -91.67422, 40.925305 ] } },
{ "type": "Feature", "properties": { "X": -93.290167, "Y": 41.246639, "lid": 132569, "USGS_id": 5487980, "USGS_name": "White Breast Creek near Dallas (05487980)", "Area": 859.87668, "Slope": 0.153991, "t_trav": 36.02, "lat": 41.246639, "lon": -93.290167, "ifis_id": 572, "num_up_gag": 1 }, "geometry": { "type": "Point", "coordinates": [ -93.290167, 41.246639 ] } },
{ "type": "Feature", "properties": { "X": -93.045481, "Y": 41.300553, "lid": 143605, "USGS_id": 5488200, "USGS_name": "English Creek near Knoxville (05488200)", "Area": 235.68909, "Slope": 0.141956, "t_trav": 17.69, "lat": 41.300553, "lon": -93.045481, "ifis_id": 574, "num_up_gag": 1 }, "geometry": { "type": "Point", "coordinates": [ -93.045481, 41.300553 ] } },
{ "type": "Feature", "properties": { "X": -93.486325, "Y": 41.337216, "lid": 162846, "USGS_id": 5487470, "USGS_name": "South River near Ackworth (AKWI4-05487470)", "Area": 1193.98539, "Slope": 0.147306, "t_trav": 29.73, "lat": 41.337216, "lon": -93.486325, "ifis_id": 642, "num_up_gag": 1 }, "geometry": { "type": "Point", "coordinates": [ -93.486325, 41.337216 ] } },
{ "type": "Feature", "properties": { "X": -95.076936, "Y": 41.346101, "lid": 178160, "USGS_id": 6809210, "USGS_name": "East Nishnabotna River near Atlantic (ATCI4-06809210)", "Area": 1139.5956, "Slope": 0.129918, "t_trav": 34.79, "lat": 41.346101, "lon": -95.076936, "ifis_id": 665, "num_up_gag": 1 }, "geometry": { "type": "Point", "coordinates": [ -95.076936, 41.346101 ] } },
{ "type": "Feature", "properties": { "X": -93.654969, "Y": 41.457907, "lid": 178416, "USGS_id": 5486000, "USGS_name": "North River near Norwalk (NRWI4-05486000)", "Area": 906.4965, "Slope": 0.118874, "t_trav": 42.63, "lat": 41.457907, "lon": -93.654969, "ifis_id": 640, "num_up_gag": 1 }, "geometry": { "type": "Point", "coordinates": [ -93.654969, 41.457907 ] } },
{ "type": "Feature", "properties": { "X": -93.587439, "Y": 41.424158, "lid": 179425, "USGS_id": 5486490, "USGS_name": "Middle River near Indianola (IDNI4-05486490)", "Area": 1292.40501, "Slope": 0.149987, "t_trav": 60.43, "lat": 41.424158, "lon": -93.587439, "ifis_id": 641, "num_up_gag": 1 }, "geometry": { "type": "Point", "coordinates": [ -93.587439, 41.424158 ] } },
{ "type": "Feature", "properties": { "X": -95.718417, "Y": 41.102111, "lid": 191552, "USGS_id": 6805850, "USGS_name": "Keg Creek at Epperson Ave near Glenwood (06805850)", "Area": 398.85846, "Slope": 0.146199, "t_trav": 32.75, "lat": 41.102111, "lon": -95.718417, "ifis_id": 1691, "num_up_gag": 1 }, "geometry": { "type": "Point", "coordinates": [ -95.718417, 41.102111 ] } },
{ "type": "Feature", "properties": { "X": -91.714613, "Y": 41.469739, "lid": 197256, "USGS_id": 5455500, "USGS_name": "English River at Kalona (KALI4-05455500)", "Area": 1491.83424, "Slope": 0.114758, "t_trav": 46.26, "lat": 41.469739, "lon": -91.714613, "ifis_id": 599, "num_up_gag": 1 }, "geometry": { "type": "Point", "coordinates": [ -91.714613, 41.469739 ] } },
{ "type": "Feature", "properties": { "X": -90.687641, "Y": 41.556697, "lid": 199682, "USGS_id": 5422560, "USGS_name": "Duck Creek at 110th Ave at Davenport (05422560)", "Area": 41.43984, "Slope": 0.076705, "t_trav": 4.74, "lat": 41.556697, "lon": -90.687641, "ifis_id": 531, "num_up_gag": 1 }, "geometry": { "type": "Point", "coordinates": [ -90.687641, 41.556697 ] } },
{ "type": "Feature", "properties": { "X": -90.524024, "Y": 41.546144, "lid": 199722, "USGS_id": 5422600, "USGS_name": "Duck Creek at DC Golf Course at Davenport (05422600)", "Area": 150.21942, "Slope": 0.075465, "t_trav": 11.16, "lat": 41.546144, "lon": -90.524024, "ifis_id": 532, "num_up_gag": 1 }, "geometry": { "type": "Point", "coordinates": [ -90.524024, 41.546144 ] } },
{ "type": "Feature", "properties": { "X": -95.371667, "Y": 41.389992, "lid": 216572, "USGS_id": 6807410, "USGS_name": "West Nishnabotna River at Hancock (HNKI4-06807410)", "Area": 1582.48389, "Slope": 0.134081, "t_trav": 38.41, "lat": 41.389992, "lon": -95.371667, "ifis_id": 663, "num_up_gag": 1 }, "geometry": { "type": "Point", "coordinates": [ -95.371667, 41.389992 ] } },
{ "type": "Feature", "properties": { "X": -93.703276, "Y": 41.587211, "lid": 217531, "USGS_id": 5484800, "USGS_name": "Walnut Creek at Des Moines (05484800)", "Area": 202.01922, "Slope": 0.066831, "t_trav": 13.2, "lat": 41.587211, "lon": -93.703276, "ifis_id": 568, "num_up_gag": 1 }, "geometry": { "type": "Point", "coordinates": [ -93.703276, 41.587211 ] } },
{ "type": "Feature", "properties": { "X": -91.350636, "Y": 41.669603, "lid": 221201, "USGS_id": 5464942, "USGS_name": "Hoover Cr at Hoover Nat Hist Site at West Branch (05464942)", "Area": 7.76997, "Slope": 0.097041, "t_trav": 2.38, "lat": 41.669603, "lon": -91.350636, "ifis_id": 553, "num_up_gag": 1 }, "geometry": { "type": "Point", "coordinates": [ -91.350636, 41.669603 ] } },
{ "type": "Feature", "properties": { "X": -91.615724, "Y": 41.606405, "lid": 221500, "USGS_id": 5455100, "USGS_name": "Old Mans Creek near Iowa City (05455100)", "Area": 520.58799, "Slope": 0.113964, "t_trav": 27.77, "lat": 41.606405, "lon": -91.615724, "ifis_id": 546, "num_up_gag": 1 }, "geometry": { "type": "Point", "coordinates": [ -91.615724, 41.606405 ] } },
{ "type": "Feature", "properties": { "X": -91.740174, "Y": 41.718346, "lid": 226541, "USGS_id": 5454220, "USGS_name": "Clear Creek near Oxford (05454220)", "Area": 157.98939, "Slope": 0.113852, "t_trav": 10.89, "lat": 41.718346, "lon": -91.740174, "ifis_id": 543, "num_up_gag": 1 }, "geometry": { "type": "Point", "coordinates": [ -91.740174, 41.718346 ] } },
{ "type": "Feature", "properties": { "X": -91.487668, "Y": 41.700017, "lid": 227265, "USGS_id": 5454000, "USGS_name": "Rapid Creek near Iowa City (05454000)", "Area": 67.33974, "Slope": 0.105137, "t_trav": 6.55, "lat": 41.700017, "lon": -91.487668, "ifis_id": 541, "num_up_gag": 1 }, "geometry": { "type": "Point", "coordinates": [ -91.487668, 41.700017 ] } },
{ "type": "Feature", "properties": { "X": -93.570133, "Y": 41.717377, "lid": 228998, "USGS_id": 5485605, "USGS_name": "Fourmile Creek near Ankeny (05485605)", "Area": 152.80941, "Slope": 0.034752, "t_trav": 11.58, "lat": 41.717377, "lon": -93.570133, "ifis_id": 569, "num_up_gag": 1 }, "geometry": { "type": "Point", "coordinates": [ -93.570133, 41.717377 ] } },
{ "type": "Feature", "properties": { "X": -92.182127, "Y": 41.749447, "lid": 230601, "USGS_id": 5453000, "USGS_name": "Big Bear Creek at Ladora (05453000)", "Area": 484.32813, "Slope": 0.105015, "t_trav": 25.96, "lat": 41.749447, "lon": -92.182127, "ifis_id": 539, "num_up_gag": 1 }, "geometry": { "type": "Point", "coordinates": [ -92.182127, 41.749447 ] } },
{ "type": "Feature", "properties": { "X": -91.562778, "Y": 41.7, "lid": 230973, "USGS_id": 5454090, "USGS_name": "Muddy Creek at Coralville (05454090)", "Area": 20.71992, "Slope": 0.097445, "t_trav": 3.39, "lat": 41.7, "lon": -91.562778, "ifis_id": 542, "num_up_gag": 1 }, "geometry": { "type": "Point", "coordinates": [ -91.562778, 41.7 ] } },
{ "type": "Feature", "properties": { "X": -92.204626, "Y": 41.300845, "lid": 240462, "USGS_id": 5472500, "USGS_name": "North Skunk River near Sigourney (SIGI4-05472500)", "Area": 1903.64265, "Slope": 0.113159, "t_trav": 63.4, "lat": 41.300845, "lon": -92.204626, "ifis_id": 621, "num_up_gag": 1 }, "geometry": { "type": "Point", "coordinates": [ -92.204626, 41.300845 ] } },
{ "type": "Feature", "properties": { "X": -92.386297, "Y": 41.834997, "lid": 245378, "USGS_id": 5452200, "USGS_name": "Walnut Creek near Hartwick (05452200)", "Area": 183.88929, "Slope": 0.116036, "t_trav": 13.41, "lat": 41.834997, "lon": -92.386297, "ifis_id": 538, "num_up_gag": 1 }, "geometry": { "type": "Point", "coordinates": [ -92.386297, 41.834997 ] } },
{ "type": "Feature", "properties": { "X": -92.474355, "Y": 41.899439, "lid": 255051, "USGS_id": 5451900, "USGS_name": "Richland Creek near Haven (05451900)", "Area": 147.62943, "Slope": 0.113875, "t_trav": 12.29, "lat": 41.899439, "lon": -92.474355, "ifis_id": 536, "num_up_gag": 1 }, "geometry": { "type": "Point", "coordinates": [ -92.474355, 41.899439 ] } },
{ "type": "Feature", "properties": { "X": -93.309374, "Y": 41.805266, "lid": 258321, "USGS_id": 5471200, "USGS_name": "Indian Creek near Mingo (05471200)", "Area": 745.91712, "Slope": 0.046336, "t_trav": 32.19, "lat": 41.805266, "lon": -93.309374, "ifis_id": 554, "num_up_gag": 1 }, "geometry": { "type": "Point", "coordinates": [ -93.309374, 41.805266 ] } },
{ "type": "Feature", "properties": { "X": -92.852421, "Y": 42.008878, "lid": 270936, "USGS_id": 5451700, "USGS_name": "Timber Creek near Marshalltown (05451700)", "Area": 308.20881, "Slope": 0.104733, "t_trav": 15.3, "lat": 42.008878, "lon": -92.852421, "ifis_id": 535, "num_up_gag": 1 }, "geometry": { "type": "Point", "coordinates": [ -92.852421, 42.008878 ] } },
{ "type": "Feature", "properties": { "X": -95.782786, "Y": 41.64249, "lid": 273761, "USGS_id": 6609500, "USGS_name": "Boyer River at Logan (LGNI4-06609500)", "Area": 2224.80141, "Slope": 0.145047, "t_trav": 62.93, "lat": 41.64249, "lon": -95.782786, "ifis_id": 662, "num_up_gag": 1 }, "geometry": { "type": "Point", "coordinates": [ -95.782786, 41.64249 ] } },
{ "type": "Feature", "properties": { "X": -93.7355, "Y": 41.688322, "lid": 275929, "USGS_id": 5481950, "USGS_name": "Beaver Creek near Grimes (GRMI4-05481950)", "Area": 960.88629, "Slope": 0.037863, "t_trav": 41.89, "lat": 41.688322, "lon": -93.7355, "ifis_id": 631, "num_up_gag": 1 }, "geometry": { "type": "Point", "coordinates": [ -93.7355, 41.688322 ] } },
{ "type": "Feature", "properties": { "X": -92.313242, "Y": 41.964162, "lid": 277520, "USGS_id": 5452000, "USGS_name": "Salt Creek near Elberon (05452000)", "Area": 520.58799, "Slope": 0.090957, "t_trav": 17.94, "lat": 41.964162, "lon": -92.313242, "ifis_id": 537, "num_up_gag": 1 }, "geometry": { "type": "Point", "coordinates": [ -92.313242, 41.964162 ] } },
{ "type": "Feature", "properties": { "X": -91.611859, "Y": 42.030944, "lid": 277781, "USGS_id": 5464695, "USGS_name": "Indian Creek at Marion (05464695)", "Area": 176.11932, "Slope": 0.053314, "t_trav": 12.87, "lat": 42.030944, "lon": -91.611859, "ifis_id": 1765, "num_up_gag": 1 }, "geometry": { "type": "Point", "coordinates": [ -91.611859, 42.030944 ] } },
{ "type": "Feature", "properties": { "X": -95.931399, "Y": 41.830544, "lid": 278516, "USGS_id": 6608500, "USGS_name": "Soldier River at Pisgah (PSGI4-06608500)", "Area": 1041.17598, "Slope": 0.169057, "t_trav": 34.88, "lat": 41.830544, "lon": -95.931399, "ifis_id": 661, "num_up_gag": 1 }, "geometry": { "type": "Point", "coordinates": [ -95.931399, 41.830544 ] } },
{ "type": "Feature", "properties": { "X": -94.492749, "Y": 41.778597, "lid": 279554, "USGS_id": 5483450, "USGS_name": "Middle Raccoon River near Bayard (05483450)", "Area": 950.52633, "Slope": 0.092272, "t_trav": 36.65, "lat": 41.778597, "lon": -94.492749, "ifis_id": 565, "num_up_gag": 1 }, "geometry": { "type": "Point", "coordinates": [ -94.492749, 41.778597 ] } },
{ "type": "Feature", "properties": { "X": -93.630496, "Y": 42.023042, "lid": 292251, "USGS_id": 5470500, "USGS_name": "Squaw Creek at Ames (AMWI4-05470500)", "Area": 551.66787, "Slope": 0.044488, "t_trav": 23.29, "lat": 42.023042, "lon": -93.630496, "ifis_id": 617, "num_up_gag": 1 }, "geometry": { "type": "Point", "coordinates": [ -93.630496, 42.023042 ] } },
{ "type": "Feature", "properties": { "X": -92.298798, "Y": 42.251658, "lid": 309414, "USGS_id": 5464220, "USGS_name": "Wolf Creek near Dysart (05464220)", "Area": 769.22703, "Slope": 0.07023, "t_trav": 32.22, "lat": 42.251658, "lon": -92.298798, "ifis_id": 552, "num_up_gag": 1 }, "geometry": { "type": "Point", "coordinates": [ -92.298798, 42.251658 ] } },
{ "type": "Feature", "properties": { "X": -93.620134, "Y": 42.066513, "lid": 313504, "USGS_id": 5470000, "USGS_name": "South Skunk River near Ames (AMEI4-05470000)", "Area": 813.25686, "Slope": 0.037656, "t_trav": 28.07, "lat": 42.066513, "lon": -93.620134, "ifis_id": 616, "num_up_gag": 1 }, "geometry": { "type": "Point", "coordinates": [ -93.620134, 42.066513 ] } },
{ "type": "Feature", "properties": { "X": -90.728246, "Y": 42.164405, "lid": 314529, "USGS_id": 5418400, "USGS_name": "North Fork Maquoketa River near Fulton (05418400)", "Area": 1302.76497, "Slope": 0.14547, "t_trav": 44.58, "lat": 42.164405, "lon": -90.728246, "ifis_id": 526, "num_up_gag": 1 }, "geometry": { "type": "Point", "coordinates": [ -90.728246, 42.164405 ] } },
{ "type": "Feature", "properties": { "X": -93.152425, "Y": 42.314984, "lid": 323529, "USGS_id": 5451210, "USGS_name": "South Fork Iowa River NE at New Providence (05451210)", "Area": 582.74775, "Slope": 0.040397, "t_trav": 33.42, "lat": 42.314984, "lon": -93.152425, "ifis_id": 534, "num_up_gag": 1 }, "geometry": { "type": "Point", "coordinates": [ -93.152425, 42.314984 ] } },
{ "type": "Feature", "properties": { "X": -92.463245, "Y": 42.407764, "lid": 323592, "USGS_id": 5463500, "USGS_name": "Black Hawk Creek at Hudson (05463500)", "Area": 776.997, "Slope": 0.055084, "t_trav": 24.52, "lat": 42.407764, "lon": -92.463245, "ifis_id": 551, "num_up_gag": 1 }, "geometry": { "type": "Point", "coordinates": [ -92.463245, 42.407764 ] } },
{ "type": "Feature", "properties": { "X": -95.810007, "Y": 42.156934, "lid": 326618, "USGS_id": 6607200, "USGS_name": "Maple River at Mapleton (MAPI4-06607200)", "Area": 1737.88329, "Slope": 0.102824, "t_trav": 46.64, "lat": 42.156934, "lon": -95.810007, "ifis_id": 659, "num_up_gag": 1 }, "geometry": { "type": "Point", "coordinates": [ -95.810007, 42.156934 ] } },
{ "type": "Feature", "properties": { "X": -94.990822, "Y": 42.354427, "lid": 334282, "USGS_id": 5482300, "USGS_name": "North Raccoon River near Sac City (05482300)", "Area": 1880.33274, "Slope": 0.029944, "t_trav": 37.27, "lat": 42.354427, "lon": -94.990822, "ifis_id": 564, "num_up_gag": 1 }, "geometry": { "type": "Point", "coordinates": [ -94.990822, 42.354427 ] } },
{ "type": "Feature", "properties": { "X": -92.61797, "Y": 42.572759, "lid": 350386, "USGS_id": 5463000, "USGS_name": "Beaver Creek at New Hartford (NHRI4-05463000)", "Area": 903.90651, "Slope": 0.056386, "t_trav": 31.72, "lat": 42.572759, "lon": -92.61797, "ifis_id": 607, "num_up_gag": 1 }, "geometry": { "type": "Point", "coordinates": [ -92.61797, 42.572759 ] } },
{ "type": "Feature", "properties": { "X": -91.122222, "Y": 42.470556, "lid": 360567, "USGS_id": 5418110, "USGS_name": "NF Maquoketa River below Bear Cr at Dyersville (05418110)", "Area": 315.97878, "Slope": 0.096157, "t_trav": 13.3, "lat": 42.470556, "lon": -91.122222, "ifis_id": 1683, "num_up_gag": 1 }, "geometry": { "type": "Point", "coordinates": [ -91.122222, 42.470556 ] } },
{ "type": "Feature", "properties": { "X": -91.448715, "Y": 42.469988, "lid": 368221, "USGS_id": 5416900, "USGS_name": "Maquoketa River at Manchester (MCHI4-05416900)", "Area": 730.37718, "Slope": 0.065845, "t_trav": 22.19, "lat": 42.469988, "lon": -91.448715, "ifis_id": 590, "num_up_gag": 1 }, "geometry": { "type": "Point", "coordinates": [ -91.448715, 42.469988 ] } },
{ "type": "Feature", "properties": { "X": -96.078072, "Y": 42.226935, "lid": 374994, "USGS_id": 6602020, "USGS_name": "West Fork Ditch at Hornick (HOKI4-06602020)", "Area": 1357.15476, "Slope": 0.104274, "t_trav": 40.38, "lat": 42.226935, "lon": -96.078072, "ifis_id": 655, "num_up_gag": 1 }, "geometry": { "type": "Point", "coordinates": [ -96.078072, 42.226935 ] } },
{ "type": "Feature", "properties": { "X": -96.37, "Y": 42.693333, "lid": 387745, "USGS_id": 6599900, "USGS_name": "Perry Creek near Milnerville (PCMI4-06599900)", "Area": 38.84985, "Slope": 0.086493, "t_trav": 5.09, "lat": 42.693333, "lon": -96.37, "ifis_id": 650, "num_up_gag": 1 }, "geometry": { "type": "Point", "coordinates": [ -96.37, 42.693333 ] } },
{ "type": "Feature", "properties": { "X": -91.818167, "Y": 42.844139, "lid": 399598, "USGS_id": 5412340, "USGS_name": "Volga River at Fayette (05412340)", "Area": 336.6987, "Slope": 0.054672, "t_trav": 14.23, "lat": 42.844139, "lon": -91.818167, "ifis_id": 524, "num_up_gag": 1 }, "geometry": { "type": "Point", "coordinates": [ -91.818167, 42.844139 ] } },
{ "type": "Feature", "properties": { "X": -91.369025, "Y": 42.753875, "lid": 399711, "USGS_id": 5412400, "USGS_name": "Volga River at Littleport (05412400)", "Area": 909.08649, "Slope": 0.148132, "t_trav": 38.31, "lat": 42.753875, "lon": -91.369025, "ifis_id": 525, "num_up_gag": 1 }, "geometry": { "type": "Point", "coordinates": [ -91.369025, 42.753875 ] } },
{ "type": "Feature", "properties": { "X": -92.543522, "Y": 42.629426, "lid": 406874, "USGS_id": 5458900, "USGS_name": "West Fork Cedar River at Finchford (FNHI4-05458900)", "Area": 2206.67148, "Slope": 0.046388, "t_trav": 49.72, "lat": 42.629426, "lon": -92.543522, "ifis_id": 604, "num_up_gag": 1 }, "geometry": { "type": "Point", "coordinates": [ -92.543522, 42.629426 ] } },
{ "type": "Feature", "properties": { "X": -93.946694, "Y": 42.724417, "lid": 412870, "USGS_id": 5480820, "USGS_name": "Boone River near Goldfield (05480820)", "Area": 1082.61582, "Slope": 0.024433, "t_trav": 30.06, "lat": 42.724417, "lon": -93.946694, "ifis_id": 562, "num_up_gag": 1 }, "geometry": { "type": "Point", "coordinates": [ -93.946694, 42.724417 ] } },
{ "type": "Feature", "properties": { "X": -91.643016, "Y": 42.952512, "lid": 418967, "USGS_id": 5411900, "USGS_name": "Otter Creek at Elgin (05411900)", "Area": 0.0, "Slope": 0.16079, "t_trav": 11.49, "lat": 42.952512, "lon": -91.643016, "ifis_id": 1774, "num_up_gag": 1 }, "geometry": { "type": "Point", "coordinates": [ -91.643016, 42.952512 ] } },
{ "type": "Feature", "properties": { "X": -92.2574, "Y": 42.836091, "lid": 425748, "USGS_id": 5420680, "USGS_name": "Wapsipinicon River near Tripoli (05420680)", "Area": 898.72653, "Slope": 0.047383, "t_trav": 43.42, "lat": 42.836091, "lon": -92.2574, "ifis_id": 527, "num_up_gag": 1 }, "geometry": { "type": "Point", "coordinates": [ -92.2574, 42.836091 ] } },
{ "type": "Feature", "properties": { "X": -91.206519, "Y": 43.040817, "lid": 431052, "USGS_id": 5389400, "USGS_name": "Bloody Run Creek near Marquette (05389400)", "Area": 88.05966, "Slope": 0.22374, "t_trav": 9.17, "lat": 43.040817, "lon": -91.206519, "ifis_id": 522, "num_up_gag": 1 }, "geometry": { "type": "Point", "coordinates": [ -91.206519, 43.040817 ] } },
{ "type": "Feature", "properties": { "X": -93.621849, "Y": 42.759944, "lid": 437890, "USGS_id": 5449500, "USGS_name": "Iowa River near Rowan (ROWI4-05449500)", "Area": 1103.33574, "Slope": 0.034013, "t_trav": 37.3, "lat": 42.759944, "lon": -93.621849, "ifis_id": 595, "num_up_gag": 1 }, "geometry": { "type": "Point", "coordinates": [ -93.621849, 42.759944 ] } },
{ "type": "Feature", "properties": { "X": -91.265132, "Y": 43.111927, "lid": 447887, "USGS_id": 5389000, "USGS_name": "Yellow River near Ion (05389000)", "Area": 567.20781, "Slope": 0.188416, "t_trav": 25.87, "lat": 43.111927, "lon": -91.265132, "ifis_id": 521, "num_up_gag": 1 }, "geometry": { "type": "Point", "coordinates": [ -91.265132, 43.111927 ] } },
{ "type": "Feature", "properties": { "X": -95.21083, "Y": 43.128026, "lid": 448250, "USGS_id": 6605000, "USGS_name": "Ocheyedan River near Spencer (SPOI4-06605000)", "Area": 1098.15576, "Slope": 0.038542, "t_trav": 39.97, "lat": 43.128026, "lon": -95.21083, "ifis_id": 656, "num_up_gag": 1 }, "geometry": { "type": "Point", "coordinates": [ -95.21083, 43.128026 ] } },
{ "type": "Feature", "properties": { "X": -96.001129, "Y": 42.981931, "lid": 450755, "USGS_id": 6600100, "USGS_name": "Floyd River at Alton (ALTI4-06600100)", "Area": 694.11732, "Slope": 0.04223, "t_trav": 28.53, "lat": 42.981931, "lon": -96.001129, "ifis_id": 653, "num_up_gag": 1 }, "geometry": { "type": "Point", "coordinates": [ -96.001129, 42.981931 ] } },
{ "type": "Feature", "properties": { "X": -94.230861, "Y": 43.082278, "lid": 463732, "USGS_id": 5478265, "USGS_name": "East Fork Des Moines River near Algona (AGNI4-05478265)", "Area": 2292.14115, "Slope": 0.029987, "t_trav": 60.54, "lat": 43.082278, "lon": -94.230861, "ifis_id": 626, "num_up_gag": 1 }, "geometry": { "type": "Point", "coordinates": [ -94.230861, 43.082278 ] } },
{ "type": "Feature", "properties": { "X": -93.192703, "Y": 43.164962, "lid": 465190, "USGS_id": 5459500, "USGS_name": "Winnebago River at Mason City (MCWI4-05459500)", "Area": 1253.55516, "Slope": 0.043267, "t_trav": 46.31, "lat": 43.164962, "lon": -93.192703, "ifis_id": 605, "num_up_gag": 1 }, "geometry": { "type": "Point", "coordinates": [ -93.192703, 43.164962 ] } },
{ "type": "Feature", "properties": { "X": -91.950333, "Y": 43.207278, "lid": 483619, "USGS_id": 5411600, "USGS_name": "Turkey River at Spillville (05411600)", "Area": 458.42823, "Slope": 0.066735, "t_trav": 22.5, "lat": 43.207278, "lon": -91.950333, "ifis_id": 523, "num_up_gag": 1 }, "geometry": { "type": "Point", "coordinates": [ -91.950333, 43.207278 ] } },
{ "type": "Feature", "properties": { "X": -95.239167, "Y": 43.212778, "lid": 486916, "USGS_id": 6604440, "USGS_name": "Little Sioux River at 300th St near Spencer (06604440)", "Area": 1370.10471, "Slope": 0.040957, "t_trav": 39.2, "lat": 43.212778, "lon": -95.239167, "ifis_id": 576, "num_up_gag": 1 }, "geometry": { "type": "Point", "coordinates": [ -95.239167, 43.212778 ] } },
{ "type": "Feature", "properties": { "X": -91.899046, "Y": 43.406913, "lid": 503998, "USGS_id": 5387440, "USGS_name": "Upper Iowa River at Bluffton (05387440)", "Area": 1043.76597, "Slope": 0.08704, "t_trav": 44.16, "lat": 43.406913, "lon": -91.899046, "ifis_id": 519, "num_up_gag": 1 }, "geometry": { "type": "Point", "coordinates": [ -91.899046, 43.406913 ] } },
{ "type": "Feature", "properties": { "X": -92.503544, "Y": 43.03328, "lid": 509679, "USGS_id": 5458000, "USGS_name": "Little Cedar River near Ionia (05458000)", "Area": 771.81702, "Slope": 0.046448, "t_trav": 43.44, "lat": 43.03328, "lon": -92.503544, "ifis_id": 549, "num_up_gag": 1 }, "geometry": { "type": "Point", "coordinates": [ -92.503544, 43.03328 ] } },
{ "type": "Feature", "properties": { "X": -92.8525, "Y": 43.283472, "lid": 522792, "USGS_id": 5457505, "USGS_name": "Cedar River at Osage (05457505)", "Area": 2178.18159, "Slope": 0.030624, "t_trav": 45.64, "lat": 43.283472, "lon": -92.8525, "ifis_id": 548, "num_up_gag": 1 }, "geometry": { "type": "Point", "coordinates": [ -92.8525, 43.283472 ] } },
{ "type": "Feature", "properties": { "X": -96.164887, "Y": 43.422972, "lid": 553137, "USGS_id": 6483290, "USGS_name": "Rock River below Tom Creek at Rock Rapids (RAPI4-06483290)", "Area": 2209.26147, "Slope": 0.054359, "t_trav": 43.85, "lat": 43.422972, "lon": -96.164887, "ifis_id": 648, "num_up_gag": 1 }, "geometry": { "type": "Point", "coordinates": [ -96.164887, 43.422972 ] } },
{ "type": "Feature", "properties": { "X": -94.705833, "Y": 43.126111, "lid": 555741, "USGS_id": 5476590, "USGS_name": "Des Moines River at Emmetsburg (EMTI4-05476590)", "Area": 4322.69331, "Slope": 0.042148, "t_trav": 101.42, "lat": 43.126111, "lon": -94.705833, "ifis_id": 624, "num_up_gag": 1 }, "geometry": { "type": "Point", "coordinates": [ -94.705833, 43.126111 ] } },
{ "type": "Feature", "properties": { "X": -95.241658, "Y": 41.008604, "lid": 157405, "USGS_id": 6809500, "USGS_name": "East Nishnabotna River at Red Oak (RDOI4-06809500)", "Area": 2323.22103, "Slope": 0.132366, "t_trav": 54.71, "lat": 41.008604, "lon": -95.241658, "ifis_id": 666, "num_up_gag": 2 }, "geometry": { "type": "Point", "coordinates": [ -95.241658, 41.008604 ] } },
{ "type": "Feature", "properties": { "X": -95.580275, "Y": 40.873055, "lid": 216714, "USGS_id": 6808500, "USGS_name": "West Nishnabotna River at Randolph (RDPI4-06808500)", "Area": 3429.14676, "Slope": 0.130103, "t_trav": 66.94, "lat": 40.873055, "lon": -95.580275, "ifis_id": 664, "num_up_gag": 2 }, "geometry": { "type": "Point", "coordinates": [ -95.580275, 40.873055 ] } },
{ "type": "Feature", "properties": { "X": -91.598781, "Y": 41.676682, "lid": 226574, "USGS_id": 5454300, "USGS_name": "Clear Creek near Coralville (05454300)", "Area": 253.81902, "Slope": 0.113807, "t_trav": 17.02, "lat": 41.676682, "lon": -91.598781, "ifis_id": 544, "num_up_gag": 2 }, "geometry": { "type": "Point", "coordinates": [ -91.598781, 41.676682 ] } },
{ "type": "Feature", "properties": { "X": -93.545493, "Y": 41.613878, "lid": 229021, "USGS_id": 5485640, "USGS_name": "Fourmile Creek at Des Moines (05485640)", "Area": 235.68909, "Slope": 0.043907, "t_trav": 17.53, "lat": 41.613878, "lon": -93.545493, "ifis_id": 570, "num_up_gag": 2 }, "geometry": { "type": "Point", "coordinates": [ -93.545493, 41.613878 ] } },
{ "type": "Feature", "properties": { "X": -94.371077, "Y": 41.687209, "lid": 279587, "USGS_id": 5483600, "USGS_name": "Middle Raccoon River at Panora (05483600)", "Area": 1064.48589, "Slope": 0.096326, "t_trav": 43.96, "lat": 41.687209, "lon": -94.371077, "ifis_id": 566, "num_up_gag": 2 }, "geometry": { "type": "Point", "coordinates": [ -94.371077, 41.687209 ] } },
{ "type": "Feature", "properties": { "X": -95.991955, "Y": 41.964432, "lid": 326673, "USGS_id": 6602400, "USGS_name": "Monona-Harrison Ditch near Turin (06602400)", "Area": 1978.75236, "Slope": 0.11502, "t_trav": 59.22, "lat": 41.964432, "lon": -95.991955, "ifis_id": 575, "num_up_gag": 2 }, "geometry": { "type": "Point", "coordinates": [ -95.991955, 41.964432 ] } },
{ "type": "Feature", "properties": { "X": -94.376913, "Y": 41.988039, "lid": 334449, "USGS_id": 5482500, "USGS_name": "North Raccoon River near Jefferson (EFWI4-05482500)", "Area": 4294.20342, "Slope": 0.036252, "t_trav": 79.83, "lat": 41.988039, "lon": -94.376913, "ifis_id": 634, "num_up_gag": 2 }, "geometry": { "type": "Point", "coordinates": [ -94.376913, 41.988039 ] } },
{ "type": "Feature", "properties": { "X": -96.311416, "Y": 42.57666, "lid": 397674, "USGS_id": 6600500, "USGS_name": "Floyd River at James (JMEI4-06600500)", "Area": 2302.50111, "Slope": 0.069098, "t_trav": 52.6, "lat": 42.57666, "lon": -96.311416, "ifis_id": 654, "num_up_gag": 2 }, "geometry": { "type": "Point", "coordinates": [ -96.311416, 42.57666 ] } },
{ "type": "Feature", "properties": { "X": -93.805776, "Y": 42.432475, "lid": 412946, "USGS_id": 5481000, "USGS_name": "Boone River near Webster City (WBCI4-05481000)", "Area": 2175.5916, "Slope": 0.028059, "t_trav": 52.21, "lat": 42.432475, "lon": -93.805776, "ifis_id": 629, "num_up_gag": 2 }, "geometry": { "type": "Point", "coordinates": [ -93.805776, 42.432475 ] } },
{ "type": "Feature", "properties": { "X": -91.895172, "Y": 42.463598, "lid": 425876, "USGS_id": 5421000, "USGS_name": "Wapsipinicon River at Independence (IDPI4-05421000)", "Area": 2724.66948, "Slope": 0.046451, "t_trav": 69.92, "lat": 42.463598, "lon": -91.895172, "ifis_id": 592, "num_up_gag": 2 }, "geometry": { "type": "Point", "coordinates": [ -91.895172, 42.463598 ] } },
{ "type": "Feature", "properties": { "X": -92.925583, "Y": 43.005389, "lid": 432794, "USGS_id": 5460400, "USGS_name": "Shell Rock River near Rockford (05460400)", "Area": 3183.09771, "Slope": 0.042391, "t_trav": 60.94, "lat": 43.005389, "lon": -92.925583, "ifis_id": 550, "num_up_gag": 2 }, "geometry": { "type": "Point", "coordinates": [ -92.925583, 43.005389 ] } },
{ "type": "Feature", "properties": { "X": -91.809098, "Y": 43.054188, "lid": 434365, "USGS_id": 5411850, "USGS_name": "Turkey River near Eldorado (EDRI4-05411850)", "Area": 1667.95356, "Slope": 0.08044, "t_trav": 43.98, "lat": 43.054188, "lon": -91.809098, "ifis_id": 587, "num_up_gag": 2 }, "geometry": { "type": "Point", "coordinates": [ -91.809098, 43.054188 ] } },
{ "type": "Feature", "properties": { "X": -94.193489, "Y": 42.723582, "lid": 463834, "USGS_id": 5479000, "USGS_name": "East Fork Des Moines River at Dakota City (DAKI4-05479000)", "Area": 3377.34696, "Slope": 0.03121, "t_trav": 84.36, "lat": 42.723582, "lon": -94.193489, "ifis_id": 627, "num_up_gag": 2 }, "geometry": { "type": "Point", "coordinates": [ -94.193489, 42.723582 ] } },
{ "type": "Feature", "properties": { "X": -96.294471, "Y": 43.214426, "lid": 465030, "USGS_id": 6483500, "USGS_name": "Rock River near Rock Valley (RKVI4-06483500)", "Area": 4123.26408, "Slope": 0.053336, "t_trav": 56.88, "lat": 43.214426, "lon": -96.294471, "ifis_id": 649, "num_up_gag": 2 }, "geometry": { "type": "Point", "coordinates": [ -96.294471, 43.214426 ] } },
{ "type": "Feature", "properties": { "X": -91.795543, "Y": 43.304889, "lid": 504030, "USGS_id": 5387500, "USGS_name": "Upper Iowa River at Decorah (DEHI4-05387500)", "Area": 1271.68509, "Slope": 0.098574, "t_trav": 53.63, "lat": 43.304889, "lon": -91.795543, "ifis_id": 585, "num_up_gag": 2 }, "geometry": { "type": "Point", "coordinates": [ -91.795543, 43.304889 ] } },
{ "type": "Feature", "properties": { "X": -92.673884, "Y": 43.062195, "lid": 522855, "USGS_id": 5457700, "USGS_name": "Cedar River at Charles City (CCYI4-05457700)", "Area": 2789.41923, "Slope": 0.033254, "t_trav": 61.04, "lat": 43.062195, "lon": -92.673884, "ifis_id": 601, "num_up_gag": 2 }, "geometry": { "type": "Point", "coordinates": [ -92.673884, 43.062195 ] } },
{ "type": "Feature", "properties": { "X": -94.220518, "Y": 42.719416, "lid": 555865, "USGS_id": 5476750, "USGS_name": "Des Moines River at Humboldt (HBTI4-05476750)", "Area": 5920.71714, "Slope": 0.038154, "t_trav": 134.92, "lat": 42.719416, "lon": -94.220518, "ifis_id": 625, "num_up_gag": 2 }, "geometry": { "type": "Point", "coordinates": [ -94.220518, 42.719416 ] } },
{ "type": "Feature", "properties": { "X": -92.891254, "Y": 40.821872, "lid": 92010, "USGS_id": 6903900, "USGS_name": "Chariton River near Rathbun (06903900)", "Area": 1403.77458, "Slope": 0.105863, "t_trav": 44.08, "lat": 40.821872, "lon": -92.891254, "ifis_id": 579, "num_up_gag": 3 }, "geometry": { "type": "Point", "coordinates": [ -92.891254, 40.821872 ] } },
{ "type": "Feature", "properties": { "X": -94.151346, "Y": 41.589432, "lid": 202584, "USGS_id": 5484000, "USGS_name": "South Raccoon River at Redfield (REDI4-05484000)", "Area": 2517.47028, "Slope": 0.118945, "t_trav": 56.59, "lat": 41.589432, "lon": -94.151346, "ifis_id": 635, "num_up_gag": 3 }, "geometry": { "type": "Point", "coordinates": [ -94.151346, 41.589432 ] } },
{ "type": "Feature", "properties": { "X": -95.600222, "Y": 40.687139, "lid": 216755, "USGS_id": 6808820, "USGS_name": "West Nishnabotna River near Riverton (06808820)", "Area": 4265.71353, "Slope": 0.127563, "t_trav": 76.16, "lat": 40.687139, "lon": -95.600222, "ifis_id": 577, "num_up_gag": 3 }, "geometry": { "type": "Point", "coordinates": [ -95.600222, 40.687139 ] } },
{ "type": "Feature", "properties": { "X": -93.595495, "Y": 42.006653, "lid": 272678, "USGS_id": 5471000, "USGS_name": "South Skunk River below Squaw Creek near Ames (AESI4-05471000)", "Area": 1458.16437, "Slope": 0.040658, "t_trav": 31.73, "lat": 42.006653, "lon": -93.595495, "ifis_id": 618, "num_up_gag": 3 }, "geometry": { "type": "Point", "coordinates": [ -93.595495, 42.006653 ] } },
{ "type": "Feature", "properties": { "X": -90.632912, "Y": 42.083353, "lid": 285449, "USGS_id": 5418500, "USGS_name": "Maquoketa River near Maquoketa (MAQI4-05418500)", "Area": 4014.4845, "Slope": 0.1245, "t_trav": 73.04, "lat": 42.083353, "lon": -90.632912, "ifis_id": 591, "num_up_gag": 3 }, "geometry": { "type": "Point", "coordinates": [ -90.632912, 42.083353 ] } },
{ "type": "Feature", "properties": { "X": -92.9077, "Y": 42.065821, "lid": 317905, "USGS_id": 5451500, "USGS_name": "Iowa River at Marshalltown (MIWI4-05451500)", "Area": 3973.04466, "Slope": 0.050155, "t_trav": 97.69, "lat": 42.065821, "lon": -92.9077, "ifis_id": 596, "num_up_gag": 3 }, "geometry": { "type": "Point", "coordinates": [ -92.9077, 42.065821 ] } },
{ "type": "Feature", "properties": { "X": -95.972788, "Y": 41.964432, "lid": 326674, "USGS_id": 6607500, "USGS_name": "Little Sioux River near Turin (TURI4-06607500)", "Area": 1978.75236, "Slope": 0.114982, "t_trav": 59.48, "lat": 41.964432, "lon": -95.972788, "ifis_id": 660, "num_up_gag": 3 }, "geometry": { "type": "Point", "coordinates": [ -95.972788, 41.964432 ] } },
{ "type": "Feature", "properties": { "X": -91.267382, "Y": 42.083339, "lid": 426049, "USGS_id": 5421740, "USGS_name": "Wapsipinicon River near Anamosa (ANSI4-05421740)", "Area": 4094.77419, "Slope": 0.060883, "t_trav": 108.21, "lat": 42.083339, "lon": -91.267382, "ifis_id": 593, "num_up_gag": 3 }, "geometry": { "type": "Point", "coordinates": [ -91.267382, 42.083339 ] } },
{ "type": "Feature", "properties": { "X": -92.582966, "Y": 42.711925, "lid": 432886, "USGS_id": 5462000, "USGS_name": "Shell Rock River at Shell Rock (SHRI4-05462000)", "Area": 4431.47289, "Slope": 0.043307, "t_trav": 85.55, "lat": 42.711925, "lon": -92.582966, "ifis_id": 606, "num_up_gag": 3 }, "geometry": { "type": "Point", "coordinates": [ -92.582966, 42.711925 ] } },
{ "type": "Feature", "properties": { "X": -95.24333, "Y": 42.895811, "lid": 487052, "USGS_id": 6605850, "USGS_name": "Little Sioux River at Linn Grove (LNNI4-06605850)", "Area": 3991.17459, "Slope": 0.041104, "t_trav": 69.66, "lat": 42.895811, "lon": -95.24333, "ifis_id": 657, "num_up_gag": 3 }, "geometry": { "type": "Point", "coordinates": [ -95.24333, 42.895811 ] } },
{ "type": "Feature", "properties": { "X": -91.508752, "Y": 43.421084, "lid": 504104, "USGS_id": 5388250, "USGS_name": "Upper Iowa River near Dorchester (DCHI4-05388250)", "Area": 1991.70231, "Slope": 0.141003, "t_trav": 76.56, "lat": 43.421084, "lon": -91.508752, "ifis_id": 586, "num_up_gag": 3 }, "geometry": { "type": "Point", "coordinates": [ -91.508752, 43.421084 ] } },
{ "type": "Feature", "properties": { "X": -92.772418, "Y": 40.692517, "lid": 92050, "USGS_id": 6904010, "USGS_name": "Chariton River near Moulton (MOLI4-06904010)", "Area": 1919.18259, "Slope": 0.105219, "t_trav": 54.13, "lat": 40.692517, "lon": -92.772418, "ifis_id": 673, "num_up_gag": 4 }, "geometry": { "type": "Point", "coordinates": [ -92.772418, 40.692517 ] } },
{ "type": "Feature", "properties": { "X": -93.246594, "Y": 41.681378, "lid": 272783, "USGS_id": 5471050, "USGS_name": "South Skunk River at Colfax (CFXI4-05471050)", "Area": 2105.66187, "Slope": 0.04626, "t_trav": 54.93, "lat": 41.681378, "lon": -93.246594, "ifis_id": 619, "num_up_gag": 4 }, "geometry": { "type": "Point", "coordinates": [ -93.246594, 41.681378 ] } },
{ "type": "Feature", "properties": { "X": -90.96, "Y": 41.971944, "lid": 426130, "USGS_id": 5421760, "USGS_name": "Wapsipinicon River at Oxford Mills (05421760)", "Area": 4680.11193, "Slope": 0.065899, "t_trav": 125.39, "lat": 41.971944, "lon": -90.96, "ifis_id": 529, "num_up_gag": 4 }, "geometry": { "type": "Point", "coordinates": [ -90.96, 41.971944 ] } },
{ "type": "Feature", "properties": { "X": -91.401277, "Y": 42.843485, "lid": 434478, "USGS_id": 5412020, "USGS_name": "Turkey River above French Hollow Cr at Elkader (EKDI4-05412020)", "Area": 2359.48089, "Slope": 0.116062, "t_trav": 70.14, "lat": 42.843485, "lon": -91.401277, "ifis_id": 588, "num_up_gag": 4 }, "geometry": { "type": "Point", "coordinates": [ -91.401277, 42.843485 ] } },
{ "type": "Feature", "properties": { "X": -95.792889, "Y": 42.482278, "lid": 487254, "USGS_id": 6606600, "USGS_name": "Little Sioux River at Correctionville (CRRI4-06606600)", "Area": 6420.58521, "Slope": 0.058407, "t_trav": 110.42, "lat": 42.482278, "lon": -95.792889, "ifis_id": 658, "num_up_gag": 4 }, "geometry": { "type": "Point", "coordinates": [ -95.792889, 42.482278 ] } },
{ "type": "Feature", "properties": { "X": -92.47009, "Y": 42.73722, "lid": 522951, "USGS_id": 5458300, "USGS_name": "Cedar River at Waverly (WVLI4-05458300)", "Area": 4048.15437, "Slope": 0.039888, "t_trav": 83.05, "lat": 42.73722, "lon": -92.47009, "ifis_id": 602, "num_up_gag": 4 }, "geometry": { "type": "Point", "coordinates": [ -92.47009, 42.73722 ] } },
{ "type": "Feature", "properties": { "X": -92.63655, "Y": 41.964256, "lid": 317961, "USGS_id": 5451770, "USGS_name": "Iowa River at County Highway E49 near Tama (05451770-TMAI4)", "Area": 4866.59121, "Slope": 0.060038, "t_trav": 111.85, "lat": 41.964256, "lon": -92.63655, "ifis_id": 1609, "num_up_gag": 5 }, "geometry": { "type": "Point", "coordinates": [ -92.63655, 41.964256 ] } },
{ "type": "Feature", "properties": { "X": -94.203573, "Y": 42.508303, "lid": 378268, "USGS_id": 5480500, "USGS_name": "Des Moines River at Fort Dodge (FODI4-05480500)", "Area": 10991.91756, "Slope": 0.035218, "t_trav": 147.83, "lat": 42.508303, "lon": -94.203573, "ifis_id": 628, "num_up_gag": 5 }, "geometry": { "type": "Point", "coordinates": [ -94.203573, 42.508303 ] } },
{ "type": "Feature", "properties": { "X": -90.534859, "Y": 41.766974, "lid": 426239, "USGS_id": 5422000, "USGS_name": "Wapsipinicon River near De Witt (DEWI4-05422000)", "Area": 5923.30713, "Slope": 0.066861, "t_trav": 153.83, "lat": 41.766974, "lon": -90.534859, "ifis_id": 594, "num_up_gag": 5 }, "geometry": { "type": "Point", "coordinates": [ -90.534859, 41.766974 ] } },
{ "type": "Feature", "properties": { "X": -92.465186, "Y": 42.648316, "lid": 522980, "USGS_id": 5458500, "USGS_name": "Cedar River at Janesville (JANI4-05458500)", "Area": 4340.82324, "Slope": 0.041964, "t_trav": 90.76, "lat": 42.648316, "lon": -92.465186, "ifis_id": 603, "num_up_gag": 5 }, "geometry": { "type": "Point", "coordinates": [ -92.465186, 42.648316 ] } },
{ "type": "Feature", "properties": { "X": -95.645, "Y": 40.601667, "lid": 157543, "USGS_id": 6810000, "USGS_name": "Nishnabotna River above Hamburg (HMBI4-06810000)", "Area": 7308.95178, "Slope": 0.127591, "t_trav": 82.45, "lat": 40.601667, "lon": -95.645, "ifis_id": 667, "num_up_gag": 6 }, "geometry": { "type": "Point", "coordinates": [ -95.645, 40.601667 ] } },
{ "type": "Feature", "properties": { "X": -93.94995, "Y": 41.533878, "lid": 197446, "USGS_id": 5484500, "USGS_name": "Raccoon River at Van Meter (VNMI4-05484500)", "Area": 8899.20564, "Slope": 0.065133, "t_trav": 115.25, "lat": 41.533878, "lon": -93.94995, "ifis_id": 636, "num_up_gag": 6 }, "geometry": { "type": "Point", "coordinates": [ -93.94995, 41.533878 ] } },
{ "type": "Feature", "properties": { "X": -92.657359, "Y": 41.355699, "lid": 272942, "USGS_id": 5471500, "USGS_name": "South Skunk River near Oskaloosa (OOAI4-05471500)", "Area": 4291.61343, "Slope": 0.071208, "t_trav": 86.59, "lat": 41.355699, "lon": -92.657359, "ifis_id": 620, "num_up_gag": 6 }, "geometry": { "type": "Point", "coordinates": [ -92.657359, 41.355699 ] } },
{ "type": "Feature", "properties": { "X": -91.261799, "Y": 42.739988, "lid": 434514, "USGS_id": 5412500, "USGS_name": "Turkey River at Garber (GRBI4-05412500)", "Area": 4032.61443, "Slope": 0.138713, "t_trav": 80.27, "lat": 42.739988, "lon": -91.261799, "ifis_id": 589, "num_up_gag": 6 }, "geometry": { "type": "Point", "coordinates": [ -91.261799, 42.739988 ] } },
{ "type": "Feature", "properties": { "X": -93.703554, "Y": 41.561656, "lid": 197506, "USGS_id": 5484650, "USGS_name": "Raccoon River at 63rd St at Des Moines (DMWI4-05484650)", "Area": 9108.99483, "Slope": 0.066212, "t_trav": 128.48, "lat": 41.561656, "lon": -93.703554, "ifis_id": 637, "num_up_gag": 7 }, "geometry": { "type": "Point", "coordinates": [ -93.703554, 41.561656 ] } },
{ "type": "Feature", "properties": { "X": -91.718583, "Y": 41.088611, "lid": 273178, "USGS_id": 5473065, "USGS_name": "Skunk River at Merrimac (05473065)", "Area": 8404.51755, "Slope": 0.089407, "t_trav": 136.15, "lat": 41.088611, "lon": -91.718583, "ifis_id": 555, "num_up_gag": 8 }, "geometry": { "type": "Point", "coordinates": [ -91.718583, 41.088611 ] } },
{ "type": "Feature", "properties": { "X": -93.996898, "Y": 42.25192, "lid": 378371, "USGS_id": 5481300, "USGS_name": "Des Moines River near Stratford (STRI4-05481300)", "Area": 14244.945, "Slope": 0.036753, "t_trav": 172.86, "lat": 42.25192, "lon": -93.996898, "ifis_id": 630, "num_up_gag": 8 }, "geometry": { "type": "Point", "coordinates": [ -93.996898, 42.25192 ] } },
{ "type": "Feature", "properties": { "X": -93.642996, "Y": 41.581656, "lid": 197517, "USGS_id": 5484900, "USGS_name": "Raccoon River at Fleur Drive at Des Moines (DEMI4-05484900)", "Area": 9355.04388, "Slope": 0.066419, "t_trav": 130.88, "lat": 41.581656, "lon": -93.642996, "ifis_id": 638, "num_up_gag": 9 }, "geometry": { "type": "Point", "coordinates": [ -93.642996, 41.581656 ] } },
{ "type": "Feature", "properties": { "X": -92.23889, "Y": 41.85556, "lid": 318037, "USGS_id": 5452500, "USGS_name": "Iowa River near Belle Plaine (BPLI4)", "Area": 6379.14537, "Slope": 0.071311, "t_trav": 130.61, "lat": 41.85556, "lon": -92.23889, "ifis_id": 580, "num_up_gag": 9 }, "geometry": { "type": "Point", "coordinates": [ -92.23889, 41.85556 ] } },
{ "type": "Feature", "properties": { "X": -93.668276, "Y": 41.680544, "lid": 378537, "USGS_id": 5481650, "USGS_name": "Des Moines River near Saylorville (05481650)", "Area": 15260.22108, "Slope": 0.040905, "t_trav": 211.1, "lat": 41.680544, "lon": -93.668276, "ifis_id": 563, "num_up_gag": 9 }, "geometry": { "type": "Point", "coordinates": [ -93.668276, 41.680544 ] } },
{ "type": "Feature", "properties": { "X": -91.277094, "Y": 40.75365, "lid": 273299, "USGS_id": 5474000, "USGS_name": "Skunk River at Augusta (AGSI4-05474000)", "Area": 11222.42667, "Slope": 0.091011, "t_trav": 167.14, "lat": 40.75365, "lon": -91.277094, "ifis_id": 622, "num_up_gag": 11 }, "geometry": { "type": "Point", "coordinates": [ -91.277094, 40.75365 ] } },
{ "type": "Feature", "properties": { "X": -92.064792, "Y": 41.812726, "lid": 318079, "USGS_id": 5453100, "USGS_name": "Iowa River at Marengo (MROI4-05453100)", "Area": 7239.02205, "Slope": 0.076505, "t_trav": 138.88, "lat": 41.812726, "lon": -92.064792, "ifis_id": 597, "num_up_gag": 11 }, "geometry": { "type": "Point", "coordinates": [ -92.064792, 41.812726 ] } },
{ "type": "Feature", "properties": { "X": -92.443306, "Y": 42.537583, "lid": 367567, "USGS_id": 5463050, "USGS_name": "Cedar River at Cedar Falls (CEDI4-05463050)", "Area": 12209.21286, "Slope": 0.044773, "t_trav": 98.89, "lat": 42.537583, "lon": -92.443306, "ifis_id": 608, "num_up_gag": 11 }, "geometry": { "type": "Point", "coordinates": [ -92.443306, 42.537583 ] } },
{ "type": "Feature", "properties": { "X": -93.621051, "Y": 41.612489, "lid": 378559, "USGS_id": 5482000, "USGS_name": "Des Moines River at 2nd Ave at Des Moines (DMOI4-05482000)", "Area": 16329.88695, "Slope": 0.040888, "t_trav": 215.63, "lat": 41.612489, "lon": -93.621051, "ifis_id": 632, "num_up_gag": 11 }, "geometry": { "type": "Point", "coordinates": [ -93.621051, 41.612489 ] } },
{ "type": "Feature", "properties": { "X": -91.53017, "Y": 41.715293, "lid": 318208, "USGS_id": 5453520, "USGS_name": "Iowa River below Coralville Dam near Coralville (05453520)", "Area": 8072.99883, "Slope": 0.079718, "t_trav": 168.62, "lat": 41.715293, "lon": -91.53017, "ifis_id": 540, "num_up_gag": 12 }, "geometry": { "type": "Point", "coordinates": [ -91.53017, 41.715293 ] } },
{ "type": "Feature", "properties": { "X": -92.334352, "Y": 42.495542, "lid": 367593, "USGS_id": 5464000, "USGS_name": "Cedar River at Waterloo (ALOI4-05464000)", "Area": 13294.41867, "Slope": 0.045784, "t_trav": 104.41, "lat": 42.495542, "lon": -92.334352, "ifis_id": 609, "num_up_gag": 13 }, "geometry": { "type": "Point", "coordinates": [ -92.334352, 42.495542 ] } },
{ "type": "Feature", "properties": { "X": -92.023792, "Y": 42.170828, "lid": 367697, "USGS_id": 5464315, "USGS_name": "Cedar River at Vinton (05464315)", "Area": 15596.91978, "Slope": 0.048922, "t_trav": 130.77, "lat": 42.170828, "lon": -92.023792, "ifis_id": 610, "num_up_gag": 15 }, "geometry": { "type": "Point", "coordinates": [ -92.023792, 42.170828 ] } },
{ "type": "Feature", "properties": { "X": -91.78518, "Y": 42.069163, "lid": 367769, "USGS_id": 5464420, "USGS_name": "Cedar River at Blairs Ferry Rd at Palo (PLOI4-05464420)", "Area": 16376.50677, "Slope": 0.050525, "t_trav": 146.42, "lat": 42.069163, "lon": -91.78518, "ifis_id": 611, "num_up_gag": 16 }, "geometry": { "type": "Point", "coordinates": [ -91.78518, 42.069163 ] } },
{ "type": "Feature", "properties": { "X": -91.541002, "Y": 41.656683, "lid": 318225, "USGS_id": 5454500, "USGS_name": "Iowa River at Iowa City (IOWI4-05454500)", "Area": 8461.49733, "Slope": 0.081551, "t_trav": 174.38, "lat": 41.656683, "lon": -91.541002, "ifis_id": 598, "num_up_gag": 17 }, "geometry": { "type": "Point", "coordinates": [ -91.541002, 41.656683 ] } },
{ "type": "Feature", "properties": { "X": -91.667124, "Y": 41.971945, "lid": 367813, "USGS_id": 5464500, "USGS_name": "Cedar River at Cedar Rapids (CIDI4-05464500)", "Area": 16814.21508, "Slope": 0.051109, "t_trav": 155.5, "lat": 41.971945, "lon": -91.667124, "ifis_id": 612, "num_up_gag": 17 }, "geometry": { "type": "Point", "coordinates": [ -91.667124, 41.971945 ] } },
{ "type": "Feature", "properties": { "X": -91.31375, "Y": 41.787222, "lid": 367916, "USGS_id": 5464780, "USGS_name": "Cedar River at Cedar Bluff (05464780)", "Area": 18272.37945, "Slope": 0.053789, "t_trav": 176.64, "lat": 41.787222, "lon": -91.31375, "ifis_id": 1688, "num_up_gag": 18 }, "geometry": { "type": "Point", "coordinates": [ -91.31375, 41.787222 ] } },
{ "type": "Feature", "properties": { "X": -91.475278, "Y": 41.423139, "lid": 318272, "USGS_id": 5455700, "USGS_name": "Iowa River near Lone Tree (LNTI4-05455700)", "Area": 11113.64709, "Slope": 0.088555, "t_trav": 188.31, "lat": 41.423139, "lon": -91.475278, "ifis_id": 600, "num_up_gag": 20 }, "geometry": { "type": "Point", "coordinates": [ -91.475278, 41.423139 ] } },
{ "type": "Feature", "properties": { "X": -91.290434, "Y": 41.409192, "lid": 368052, "USGS_id": 5465000, "USGS_name": "Cedar River near Conesville (CNEI4-05465000)", "Area": 20080.19247, "Slope": 0.055986, "t_trav": 205.79, "lat": 41.409192, "lon": -91.290434, "ifis_id": 613, "num_up_gag": 20 }, "geometry": { "type": "Point", "coordinates": [ -91.290434, 41.409192 ] } },
{ "type": "Feature", "properties": { "X": -93.605495, "Y": 41.577767, "lid": 203777, "USGS_id": 5485500, "USGS_name": "Des Moines River blw Raccoon R. at Des Moines (DESI4-05485500)", "Area": 25708.24074, "Slope": 0.050634, "t_trav": 217.55, "lat": 41.577767, "lon": -93.605495, "ifis_id": 639, "num_up_gag": 21 }, "geometry": { "type": "Point", "coordinates": [ -93.605495, 41.577767 ] } },
{ "type": "Feature", "properties": { "X": -93.27825, "Y": 41.4894, "lid": 203851, "USGS_id": 5487520, "USGS_name": "Des Moines River near Swan (05487520)", "Area": 30437.56248, "Slope": 0.064588, "t_trav": 237.63, "lat": 41.4894, "lon": -93.27825, "ifis_id": 571, "num_up_gag": 27 }, "geometry": { "type": "Point", "coordinates": [ -93.27825, 41.4894 ] } },
{ "type": "Feature", "properties": { "X": -92.973256, "Y": 41.360553, "lid": 203920, "USGS_id": 5488110, "USGS_name": "Des Moines River near Pella (05488110)", "Area": 32040.76629, "Slope": 0.069088, "t_trav": 254.52, "lat": 41.360553, "lon": -92.973256, "ifis_id": 573, "num_up_gag": 29 }, "geometry": { "type": "Point", "coordinates": [ -92.973256, 41.360553 ] } },
{ "type": "Feature", "properties": { "X": -92.861504, "Y": 41.281391, "lid": 203941, "USGS_id": 5488500, "USGS_name": "Des Moines River near Tracy (TRCI4-05488500)", "Area": 32442.21474, "Slope": 0.070058, "t_trav": 261.76, "lat": 41.281391, "lon": -92.861504, "ifis_id": 643, "num_up_gag": 31 }, "geometry": { "type": "Point", "coordinates": [ -92.861504, 41.281391 ] } },
{ "type": "Feature", "properties": { "X": -92.411296, "Y": 41.010848, "lid": 204046, "USGS_id": 5489500, "USGS_name": "Des Moines River at Ottumwa (OTMI4-05489500)", "Area": 34760.25579, "Slope": 0.075955, "t_trav": 285.44, "lat": 41.010848, "lon": -92.411296, "ifis_id": 645, "num_up_gag": 33 }, "geometry": { "type": "Point", "coordinates": [ -92.411296, 41.010848 ] } },
{ "type": "Feature", "properties": { "X": -91.959617, "Y": 40.727806, "lid": 204188, "USGS_id": 5490500, "USGS_name": "Des Moines River at Keosauqua (KEQI4-05490500)", "Area": 36474.82917, "Slope": 0.079625, "t_trav": 314.64, "lat": 40.727806, "lon": -91.959617, "ifis_id": 646, "num_up_gag": 34 }, "geometry": { "type": "Point", "coordinates": [ -91.959617, 40.727806 ] } },
{ "type": "Feature", "properties": { "X": -91.182094, "Y": 41.178086, "lid": 368123, "USGS_id": 5465500, "USGS_name": "Iowa River at Wapello (WAPI4-05465500)", "Area": 32330.84517, "Slope": 0.068331, "t_trav": 223.33, "lat": 41.178086, "lon": -91.182094, "ifis_id": 614, "num_up_gag": 41 }, "geometry": { "type": "Point", "coordinates": [ -91.182094, 41.178086 ] } },
{ "type": "Feature", "properties": { "X": -91.063528, "Y": 41.103194, "lid": 368142, "USGS_id": 5465700, "USGS_name": "Iowa River at Oakville (OKVI4-05465700)", "Area": 32646.82395, "Slope": 0.06837, "t_trav": 229.26, "lat": 41.103194, "lon": -91.063528, "ifis_id": 615, "num_up_gag": 42 }, "geometry": { "type": "Point", "coordinates": [ -91.063528, 41.103194 ] } }
]
}
